$PSRFTXT,Version:GSW3.2.2_3.1.00.12-SDK003P1.01a 
$PSRFTXT,Version2:F-GPS-03-0607211
$PSRFTXT,WAAS Disable
$PSRFTXT,TOW:  26833
$PSRFTXT,WK:   1422
$PSRFTXT,POS:  2845429 2198159 5250582
$PSRFTXT,CLK:  96413
$PSRFTXT,CHNL: 12
$PSRFTXT,Baud rate: 4800 
$GPGGA,072458.748,,,,,0,00,,,M,0.0,M,,0000*51
$GPGSA,A,1,,,,,,,,,,,,,,,*1E
$GPRMC,072458.748,V,,,,,,,080407,,*23
$GPGGA,072459.739,,,,,0,00,,,M,0.0,M,,0000*56
$GPGSA,A,1,,,,,,,,,,,,,,,*1E
$GPGSV,3,1,12,20,00,000,,10,00,000,,25,00,000,,27,00,000,*79
$GPGSV,3,2,12,22,00,000,,07,00,000,,21,00,000,,24,00,000,*79
$GPGSV,3,3,12,16,00,000,,28,00,000,,26,00,000,,29,00,000,*78
$GPRMC,072501.744,V,,,,,,,080407,,*22
$GPGGA,072502.739,,,,,0,00,,,M,0.0,M,,0000*59
$GPGSA,A,1,,,,,,,,,,,,,,,*1E
$GPRMC,072502.739,V,,,,,,,080407,,*2B
$GPGGA,072503.739,,,,,0,00,,,M,0.0,M,,0000*58
$GPGSA,A,1,,,,,,,,,,,,,,,*1E
$GPGSV,3,1,11,18,69,101,,22,59,191,,03,59,264,27,19,38,300,36*77
$GPGSV,3,2,11,21,38,095,,26,20,035,38,29,13,026,36,16,11,216,*7D
$GPGSV,3,3,11,08,05,337,,24,02,092,,14,00,167,*49
$GPRMC,072631.710,V,,,,,,,080407,,*23
$GPGGA,072632.710,,,,,0,00,,,M,0.0,M,,0000*52
$GPGSA,A,1,,,,,,,,,,,,,,,*1E
$GPRMC,072632.710,V,,,,,,,080407,,*20
$GPGGA,072633.710,,,,,0,00,,,M,0.0,M,,0000*53
$GPGSA,A,1,,,,,,,,,,,,,,,*1E
$GPRMC,072633.710,V,,,,,,,080407,,*21
$GPGGA,072634.710,5546.5698,N,03741.2066,E,1,03,10.6,174.3,M,14.4,M,,0000*69
$GPGSA,A,2,26,29,19,,,,,,,,,,10.6,10.6,1.0*35
$GPRMC,072634.710,A,5546.5698,N,03741.2066,E,0.00,,080407,,*17
$GPGGA,072635.710,5546.5696,N,03741.2067,E,1,03,10.6,174.3,M,14.4,M,,0000*67
$GPGSA,A,2,26,29,19,,,,,,,,,,10.6,10.6,1.0*35
$GPRMC,072635.710,A,5546.5696,N,03741.2067,E,0.00,,080407,,*19
$GPGGA,072636.711,5546.5674,N,03741.2020,E,0,03,,174.3,M,14.4,M,,0000*72
$GPGSA,A,1,26,29,19,,,,,,,,,,,,*19
$GPGSV,3,1,11,19,38,300,33,26,20,035,36,29,13,026,36,18,69,100,*71
$GPGSV,3,2,11,22,60,191,,03,59,264,31,21,38,095,,16,11,216,*7C
$GPGSV,3,3,11,08,05,337,,24,02,092,,14,01,167,*48
$GPRMC,072636.711,A,5546.5674,N,03741.2020,E,,,080407,,*0A
$GPGGA,072637.711,5546.5636,N,03741.1971,E,1,03,10.6,174.3,M,14.4,M,,0000*63
$GPGSA,A,2,26,29,19,,,,,,,,,,10.6,10.6,1.0*35
$GPRMC,072637.711,A,5546.5636,N,03741.1971,E,0.00,,080407,,*1D
$GPGGA,072638.711,5546.5879,N,03741.1766,E,1,03,10.6,174.3,M,14.4,M,,0000*61
$GPGSA,A,2,26,29,19,,,,,,,,,,10.6,10.6,1.0*35
$GPRMC,072638.711,A,5546.5879,N,03741.1766,E,0.00,,080407,,*1F
$GPGGA,072639.711,5546.5754,N,03741.1887,E,1,03,10.6,174.3,M,14.4,M,,0000*60
$GPGSA,A,2,26,29,19,,,,,,,,,,10.6,10.6,1.0*35
$GPRMC,072639.711,A,5546.5754,N,03741.1887,E,0.00,,080407,,*1E
$GPGGA,072640.711,5546.5537,N,03741.2054,E,1,03,10.6,174.3,M,14.4,M,,0000*6C
$GPGSA,A,2,26,29,19,,,,,,,,,,10.6,10.6,1.0*35
$GPRMC,072640.711,A,5546.5537,N,03741.2054,E,0.00,,080407,,*12
$GPGGA,072641.711,5546.5432,N,03741.2125,E,1,03,10.6,174.3,M,14.4,M,,0000*6E
$GPGSA,A,2,26,29,19,,,,,,,,,,10.6,10.6,1.0*35
$GPGSV,3,1,11,19,38,300,32,26,20,035,37,29,13,026,37,18,69,100,*70
$GPGSV,3,2,11,22,60,191,19,03,59,264,30,21,38,095,,16,11,216,*75
$GPGSV,3,3,11,08,05,337,,24,02,092,,14,01,167,*48
$GPRMC,072641.711,A,5546.5432,N,03741.2125,E,0.00,,080407,,*10
$GPGGA,072642.711,5546.5395,N,03741.2180,E,1,03,10.6,174.3,M,14.4,M,,0000*68
$GPGSA,A,2,26,29,19,,,,,,,,,,10.6,10.6,1.0*35
$GPRMC,072642.711,A,5546.5395,N,03741.2180,E,0.00,,080407,,*16
$GPGGA,072643.711,5546.5444,N,03741.2183,E,1,03,10.6,174.3,M,14.4,M,,0000*61
$GPGSA,A,2,26,29,19,,,,,,,,,,10.6,10.6,1.0*35
$GPRMC,072643.711,A,5546.5444,N,03741.2183,E,0.00,,080407,,*1F
$GPGGA,072644.711,5546.5275,N,03741.2278,E,1,03,10.6,174.3,M,14.4,M,,0000*65
$GPGSA,A,2,26,29,19,,,,,,,,,,10.6,10.6,1.0*35
$GPRMC,072644.711,A,5546.5275,N,03741.2278,E,0.00,,080407,,*1B
$GPGGA,072645.711,5546.5705,N,03741.2058,E,1,03,10.6,174.3,M,14.4,M,,0000*66
$GPGSA,A,2,26,29,19,,,,,,,,,,10.6,10.6,1.0*35
$GPRMC,072645.711,A,5546.5705,N,03741.2058,E,0.00,,080407,,*18
$GPGGA,072646.711,5546.5684,N,03741.2060,E,1,03,10.6,174.3,M,14.4,M,,0000*66
$GPGSA,A,2,26,29,19,,,,,,,,,,10.6,10.6,1.0*35
$GPGSV,3,1,11,19,38,300,33,26,20,035,36,29,13,026,37,18,69,100,*70
$GPGSV,3,2,11,22,60,191,17,03,59,264,29,21,38,095,,16,11,216,*73
$GPGSV,3,3,11,08,05,337,,24,02,092,,14,01,167,*48
$GPRMC,072646.711,A,5546.5684,N,03741.2060,E,0.00,,080407,,*18
$GPGGA,072647.711,5546.5618,N,03741.2094,E,1,03,10.6,174.3,M,14.4,M,,0000*69
$GPGSA,A,2,26,29,19,,,,,,,,,,10.6,10.6,1.0*35
$GPRMC,072647.711,A,5546.5618,N,03741.2094,E,0.00,,080407,,*17
